[
    {
        "idParking": 101,
        "name": "Auguadri",
        "address": "via Auguadri 1",
        "city": "Como",
        "latitude": "45.80646",
        "longitude": "9.08628",
        "totalParkingNumber": 740,
        "minPrice": 1,
        "maxPrice": 2
    },
    {
        "idParking": 102,
        "name": "IV Ponte",
        "address": "via Innocenzo XI 45",
        "city": "Como",
        "latitude": "45.805813",
        "longitude": "9.079383",
        "totalParkingNumber": 180,
        "minPrice": 2,
        "maxPrice": 3
    },
    {
        "idParking": 103,
        "name": "Centro Lago",
        "address": "via Recchi",
        "city": "Como",
        "latitude": "45.811301",
        "longitude": "9.074501",
        "totalParkingNumber": 350,
        "minPrice": 1,
        "maxPrice": 2
    },
    {
        "idParking": 104,
        "name": "Valduce",
        "address": "viale Lecco 9",
        "city": "Como",
        "latitude": "45.810633",
        "longitude": "9.086697",
        "totalParkingNumber": 515,
        "minPrice": 1,
        "maxPrice": 2
    },
    {
        "idParking": 105,
        "name": "Sirtori",
        "address": "via Giuseppe Sirtori",
        "city": "Como",
        "latitude": "45.805716",
        "longitude": "9.089741",
        "totalParkingNumber": 70,
        "minPrice": 1,
        "maxPrice": 2
    },
    {
        "idParking": 106,
        "name": "Esselunga",
        "address": "via Carloni 12",
        "city": "Como",
        "latitude": "45.803819",
        "longitude": "9.094470",
        "totalParkingNumber": 345,
        "minPrice": 1,
        "maxPrice": 2
    },
    {
        "idParking": 107,
        "name": "Castelnuovo",
        "address": "via Castelnuovo",
        "city": "Como",
        "latitude": "45.802131",
        "longitude": "9.092044",
        "totalParkingNumber": 440,
        "minPrice": 1,
        "maxPrice": 2
    },
    {
        "idParking": 109,
        "name": "S. Giovanni",
        "address": "via Regina Teodolinda 2",
        "citta": "Como",
        "latitude": "45.808122",
        "longitude": "9.074752",
        "totalParkingNumber": 160,
        "minPrice": 1,
        "maxPrice": 2
    },
    {
        "idParking": 110,
        "name": "S. Martino",
        "address": "via Castelnuovo 5",
        "city": "Como",
        "latitude": "45.804424",
        "longitude": "9.097461",
        "totalParkingNumber": 180,
        "minPrice": 1,
        "maxPrice": 2
    },
    {
        "idParking": 121,
        "name": "Tavernola",
        "address": "via Cernobbio 35",
        "citta": "Como",
        "latitude": "45.832254",
        "longitude": "9.071289",
        "totalParkingNumber": 205,
        "minPrice": 1,
        "maxPrice": 2
    },
    {
        "idParking": 123,
        "name": "Val Mulini",
        "address": "via dei Mulini",
        "city": "Como",
        "latitude": "45.79019",
        "longitude": "9.09138",
        "totalParkingNumber": 630,
        "minPrice": 1,
        "maxPrice": 2
    }
]